{
  "repoBasePath": "/ChesapeakeBayLighthouses/",
  "items": [
    {
      "id": "baltimore-harbor-light",
      "name": "Baltimore Harbor Light",
      "state": "MD",
      "latitude": 39.05919,
      "longitude": -76.399,
      "year_built": 1908,
      "status": "active",
      "type": "tower",
      "wikipedia_url": null,
      "source_list_url": "https://en.wikipedia.org/wiki/List_of_lighthouses_in_Maryland"
    },
    {
      "id": "blakistone-island-light",
      "name": "Blakistone Island Light",
      "state": "MD",
      "latitude": 38.2074,
      "longitude": -76.7449,
      "year_built": 1851,
      "status": "destroyed",
      "type": "tower",
      "wikipedia_url": null,
      "source_list_url": "https://en.wikipedia.org/wiki/List_of_lighthouses_in_Maryland"
    },
    {
      "id": "bloody-point-bar-light",
      "name": "Bloody Point Bar Light",
      "state": "MD",
      "latitude": 38.8338,
      "longitude": -76.3917,
      "year_built": 1882,
      "status": "active",
      "type": "screw-pile",
      "wikipedia_url": null,
      "source_list_url": "https://en.wikipedia.org/wiki/List_of_lighthouses_in_Maryland"
    },
    {
      "id": "bodkin-island-light",
      "name": "Bodkin Island Light",
      "state": "MD",
      "latitude": 39.134,
      "longitude": -76.427,
      "year_built": 1822,
      "status": "destroyed",
      "type": "tower",
      "wikipedia_url": null,
      "source_list_url": "https://en.wikipedia.org/wiki/List_of_lighthouses_in_Maryland"
    },
    {
      "id": "cedar-point-light",
      "name": "Cedar Point Light",
      "state": "MD",
      "latitude": 39.2992,
      "longitude": -76.386,
      "year_built": 1896,
      "status": "inactive",
      "type": "tower",
      "wikipedia_url": null,
      "source_list_url": "https://en.wikipedia.org/wiki/List_of_lighthouses_in_Maryland"
    },
    {
      "id": "choptank-river-light",
      "name": "Choptank River Light",
      "state": "MD",
      "latitude": 38.6555,
      "longitude": -76.1855,
      "year_built": 1871,
      "status": "inactive",
      "type": "screw-pile",
      "wikipedia_url": null,
      "source_list_url": "https://en.wikipedia.org/wiki/List_of_lighthouses_in_Maryland"
    },
    {
      "id": "clay-island-light",
      "name": "Clay Island Light",
      "state": "MD",
      "latitude": 38.234,
      "longitude": -75.97,
      "year_built": 1832,
      "status": "destroyed",
      "type": "tower",
      "wikipedia_url": null,
      "source_list_url": "https://en.wikipedia.org/wiki/List_of_lighthouses_in_Maryland"
    },
    {
      "id": "cobb-point-bar-light",
      "name": "Cobb Point Bar Light",
      "state": "MD",
      "latitude": 38.2424,
      "longitude": -76.8266,
      "year_built": 1889,
      "status": "destroyed",
      "type": "screw-pile",
      "wikipedia_url": null,
      "source_list_url": "https://en.wikipedia.org/wiki/List_of_lighthouses_in_Maryland"
    },
    {
      "id": "concord-point-light",
      "name": "Concord Point Light",
      "state": "MD",
      "latitude": 39.5407,
      "longitude": -76.0848,
      "year_built": 1827,
      "status": "active",
      "type": "tower",
      "wikipedia_url": null,
      "source_list_url": "https://en.wikipedia.org/wiki/List_of_lighthouses_in_Maryland"
    },
    {
      "id": "cove-point-light",
      "name": "Cove Point Light",
      "state": "MD",
      "latitude": 38.3863,
      "longitude": -76.3817,
      "year_built": 1828,
      "status": "active",
      "type": "tower",
      "wikipedia_url": null,
      "source_list_url": "https://en.wikipedia.org/wiki/List_of_lighthouses_in_Maryland"
    },
    {
      "id": "craighill-channel-lower-range-front-light",
      "name": "Craighill Channel Lower Range Front Light",
      "state": "MD",
      "latitude": 39.1886,
      "longitude": -76.3945,
      "year_built": 1875,
      "status": "active",
      "type": "range",
      "wikipedia_url": null,
      "source_list_url": "https://en.wikipedia.org/wiki/List_of_lighthouses_in_Maryland"
    },
    {
      "id": "craighill-channel-lower-range-rear-light",
      "name": "Craighill Channel Lower Range Rear Light",
      "state": "MD",
      "latitude": 39.2291,
      "longitude": -76.3942,
      "year_built": 1875,
      "status": "active",
      "type": "range",
      "wikipedia_url": null,
      "source_list_url": "https://en.wikipedia.org/wiki/List_of_lighthouses_in_Maryland"
    },
    {
      "id": "craighill-channel-upper-range-front-light",
      "name": "Craighill Channel Upper Range Front Light",
      "state": "MD",
      "latitude": 39.1971,
      "longitude": -76.4482,
      "year_built": 1886,
      "status": "active",
      "type": "range",
      "wikipedia_url": null,
      "source_list_url": "https://en.wikipedia.org/wiki/List_of_lighthouses_in_Maryland"
    },
    {
      "id": "craighill-channel-upper-range-rear-light",
      "name": "Craighill Channel Upper Range Rear Light",
      "state": "MD",
      "latitude": 39.2162,
      "longitude": -76.4627,
      "year_built": 1886,
      "status": "active",
      "type": "range",
      "wikipedia_url": null,
      "source_list_url": "https://en.wikipedia.org/wiki/List_of_lighthouses_in_Maryland"
    },
    {
      "id": "fishing-battery-light",
      "name": "Fishing Battery Light",
      "state": "MD",
      "latitude": 39.495,
      "longitude": -76.083,
      "year_built": 1853,
      "status": "inactive",
      "type": "tower",
      "wikipedia_url": null,
      "source_list_url": "https://en.wikipedia.org/wiki/List_of_lighthouses_in_Maryland"
    },
    {
      "id": "fog-point-light",
      "name": "Fog Point Light",
      "state": "MD",
      "latitude": 38.0299,
      "longitude": -76.0417,
      "year_built": 1827,
      "status": "destroyed",
      "type": "tower",
      "wikipedia_url": null,
      "source_list_url": "https://en.wikipedia.org/wiki/List_of_lighthouses_in_Maryland"
    },
    {
      "id": "fort-carroll-light",
      "name": "Fort Carroll Light",
      "state": "MD",
      "latitude": 39.2147,
      "longitude": -76.5199,
      "year_built": 1854,
      "status": "inactive",
      "type": "tower",
      "wikipedia_url": null,
      "source_list_url": "https://en.wikipedia.org/wiki/List_of_lighthouses_in_Maryland"
    },
    {
      "id": "fort-washington-light",
      "name": "Fort Washington Light",
      "state": "MD",
      "latitude": 38.712306,
      "longitude": -77.036889,
      "year_built": 1857,
      "status": "active",
      "type": "tower",
      "wikipedia_url": null,
      "source_list_url": "https://en.wikipedia.org/wiki/List_of_lighthouses_in_Maryland"
    },
    {
      "id": "great-shoals-light",
      "name": "Great Shoals Light",
      "state": "MD",
      "latitude": 38.2143,
      "longitude": -75.8794,
      "year_built": 1882,
      "status": "inactive",
      "type": "screw-pile",
      "wikipedia_url": null,
      "source_list_url": "https://en.wikipedia.org/wiki/List_of_lighthouses_in_Maryland"
    },
    {
      "id": "greenbury-point-light-first",
      "name": "Greenbury Point Light (First)",
      "state": "MD",
      "latitude": 38.975,
      "longitude": -76.455,
      "year_built": 1848,
      "status": "destroyed",
      "type": "tower",
      "wikipedia_url": null,
      "source_list_url": "https://en.wikipedia.org/wiki/List_of_lighthouses_in_Maryland"
    },
    {
      "id": "greenbury-point-shoal-light-second",
      "name": "Greenbury Point Shoal Light (Second)",
      "state": "MD",
      "latitude": 38.968,
      "longitude": -76.454,
      "year_built": 1892,
      "status": "inactive",
      "type": "screw-pile",
      "wikipedia_url": null,
      "source_list_url": "https://en.wikipedia.org/wiki/List_of_lighthouses_in_Maryland"
    },
    {
      "id": "hawkins-point-light",
      "name": "Hawkins Point Light",
      "state": "MD",
      "latitude": 39.2079,
      "longitude": -76.5326,
      "year_built": 1868,
      "status": "inactive",
      "type": "tower",
      "wikipedia_url": null,
      "source_list_url": "https://en.wikipedia.org/wiki/List_of_lighthouses_in_Maryland"
    },
    {
      "id": "holland-island-bar-light",
      "name": "Holland Island Bar Light",
      "state": "MD",
      "latitude": 38.0687,
      "longitude": -76.0959,
      "year_built": 1889,
      "status": "destroyed",
      "type": "screw-pile",
      "wikipedia_url": null,
      "source_list_url": "https://en.wikipedia.org/wiki/List_of_lighthouses_in_Maryland"
    },
    {
      "id": "hooper-island-light",
      "name": "Hooper Island Light",
      "state": "MD",
      "latitude": 38.256,
      "longitude": -76.25,
      "year_built": 1902,
      "status": "active",
      "type": "tower",
      "wikipedia_url": null,
      "source_list_url": "https://en.wikipedia.org/wiki/List_of_lighthouses_in_Maryland"
    },
    {
      "id": "hooper-strait-light",
      "name": "Hooper Strait Light",
      "state": "MD",
      "latitude": 38.7875,
      "longitude": -76.2192,
      "year_built": 1879,
      "status": "moved to museum",
      "type": "screw-pile",
      "wikipedia_url": null,
      "source_list_url": "https://en.wikipedia.org/wiki/List_of_lighthouses_in_Maryland"
    },
    {
      "id": "janes-island-light",
      "name": "Janes Island Light",
      "state": "MD",
      "latitude": 37.9633,
      "longitude": -75.9185,
      "year_built": 1879,
      "status": "destroyed",
      "type": "tower",
      "wikipedia_url": null,
      "source_list_url": "https://en.wikipedia.org/wiki/List_of_lighthouses_in_Maryland"
    },
    {
      "id": "lazaretto-point-light",
      "name": "Lazaretto Point Light",
      "state": "MD",
      "latitude": 39.2622,
      "longitude": -76.5715,
      "year_built": 1831,
      "status": "inactive",
      "type": "tower",
      "wikipedia_url": null,
      "source_list_url": "https://en.wikipedia.org/wiki/List_of_lighthouses_in_Maryland"
    },
    {
      "id": "leading-point-light",
      "name": "Leading Point Light",
      "state": "MD",
      "latitude": 39.2137,
      "longitude": -76.5518,
      "year_built": 1868,
      "status": "inactive",
      "type": "tower",
      "wikipedia_url": null,
      "source_list_url": "https://en.wikipedia.org/wiki/List_of_lighthouses_in_Maryland"
    },
    {
      "id": "love-point-light",
      "name": "Love Point Light",
      "state": "MD",
      "latitude": 39.0539,
      "longitude": -76.2904,
      "year_built": 1872,
      "status": "destroyed",
      "type": "screw-pile",
      "wikipedia_url": null,
      "source_list_url": "https://en.wikipedia.org/wiki/List_of_lighthouses_in_Maryland"
    },
    {
      "id": "lower-cedar-point-light",
      "name": "Lower Cedar Point Light",
      "state": "MD",
      "latitude": 38.34,
      "longitude": -76.993,
      "year_built": 1896,
      "status": "inactive",
      "type": "screw-pile",
      "wikipedia_url": null,
      "source_list_url": "https://en.wikipedia.org/wiki/List_of_lighthouses_in_Maryland"
    },
    {
      "id": "maryland-point-light",
      "name": "Maryland Point Light",
      "state": "MD",
      "latitude": 38.3495,
      "longitude": -77.1975,
      "year_built": 1892,
      "status": "inactive",
      "type": "screw-pile",
      "wikipedia_url": null,
      "source_list_url": "https://en.wikipedia.org/wiki/List_of_lighthouses_in_Maryland"
    },
    {
      "id": "mathias-point-light",
      "name": "Mathias Point Light",
      "state": "MD",
      "latitude": 38.4051,
      "longitude": -77.0428,
      "year_built": 1876,
      "status": "inactive",
      "type": "screw-pile",
      "wikipedia_url": null,
      "source_list_url": "https://en.wikipedia.org/wiki/List_of_lighthouses_in_Maryland"
    },
    {
      "id": "piney-point-light",
      "name": "Piney Point Light",
      "state": "MD",
      "latitude": 38.1355,
      "longitude": -76.5297,
      "year_built": 1836,
      "status": "inactive",
      "type": "tower",
      "wikipedia_url": null,
      "source_list_url": "https://en.wikipedia.org/wiki/List_of_lighthouses_in_Maryland"
    },
    {
      "id": "point-lookout-light",
      "name": "Point Lookout Light",
      "state": "MD",
      "latitude": 38.0387,
      "longitude": -76.3221,
      "year_built": 1830,
      "status": "inactive",
      "type": "tower",
      "wikipedia_url": null,
      "source_list_url": "https://en.wikipedia.org/wiki/List_of_lighthouses_in_Maryland"
    },
    {
      "id": "point-no-point-light",
      "name": "Point No Point Light",
      "state": "MD",
      "latitude": 38.128,
      "longitude": -76.29,
      "year_built": 1905,
      "status": "active",
      "type": "tower",
      "wikipedia_url": null,
      "source_list_url": "https://en.wikipedia.org/wiki/List_of_lighthouses_in_Maryland"
    },
    {
      "id": "pooles-island-light",
      "name": "Pooles Island Light",
      "state": "MD",
      "latitude": 39.279,
      "longitude": -76.27,
      "year_built": 1825,
      "status": "active",
      "type": "tower",
      "wikipedia_url": null,
      "source_list_url": "https://en.wikipedia.org/wiki/List_of_lighthouses_in_Maryland"
    },
    {
      "id": "ragged-point-light",
      "name": "Ragged Point Light",
      "state": "MD",
      "latitude": 38.1544,
      "longitude": -76.6014,
      "year_built": 1910,
      "status": "inactive",
      "type": "screw-pile",
      "wikipedia_url": null,
      "source_list_url": "https://en.wikipedia.org/wiki/List_of_lighthouses_in_Maryland"
    },
    {
      "id": "sandy-point-shoal-light",
      "name": "Sandy Point Shoal Light",
      "state": "MD",
      "latitude": 39.016,
      "longitude": -76.385,
      "year_built": 1883,
      "status": "active",
      "type": "tower",
      "wikipedia_url": null,
      "source_list_url": "https://en.wikipedia.org/wiki/List_of_lighthouses_in_Maryland"
    },
    {
      "id": "sharkfin-shoal-light",
      "name": "Sharkfin Shoal Light",
      "state": "MD",
      "latitude": 38.202,
      "longitude": -75.9868,
      "year_built": 1892,
      "status": "inactive",
      "type": "screw-pile",
      "wikipedia_url": null,
      "source_list_url": "https://en.wikipedia.org/wiki/List_of_lighthouses_in_Maryland"
    },
    {
      "id": "sharps-island-light",
      "name": "Sharps Island Light",
      "state": "MD",
      "latitude": 38.6391,
      "longitude": -76.3758,
      "year_built": 1882,
      "status": "inactive",
      "type": "screw-pile",
      "wikipedia_url": null,
      "source_list_url": "https://en.wikipedia.org/wiki/List_of_lighthouses_in_Maryland"
    },
    {
      "id": "solomons-lump-light",
      "name": "Solomons Lump Light",
      "state": "MD",
      "latitude": 38.04806,
      "longitude": -76.01502,
      "year_built": 1895,
      "status": "active",
      "type": "screw-pile",
      "wikipedia_url": null,
      "source_list_url": "https://en.wikipedia.org/wiki/List_of_lighthouses_in_Maryland"
    },
    {
      "id": "somers-cove-light",
      "name": "Somers Cove Light",
      "state": "MD",
      "latitude": 37.9665,
      "longitude": -75.8775,
      "year_built": 1867,
      "status": "inactive",
      "type": "tower",
      "wikipedia_url": null,
      "source_list_url": "https://en.wikipedia.org/wiki/List_of_lighthouses_in_Maryland"
    },
    {
      "id": "thomas-point-shoal-light",
      "name": "Thomas Point Shoal Light",
      "state": "MD",
      "latitude": 38.899,
      "longitude": -76.436,
      "year_built": 1875,
      "status": "active",
      "type": "screw-pile",
      "wikipedia_url": null,
      "source_list_url": "https://en.wikipedia.org/wiki/List_of_lighthouses_in_Maryland"
    },
    {
      "id": "turkey-point-light",
      "name": "Turkey Point Light",
      "state": "MD",
      "latitude": 39.44988278,
      "longitude": -76.00842028,
      "year_built": 1833,
      "status": "active",
      "type": "tower",
      "wikipedia_url": null,
      "source_list_url": "https://en.wikipedia.org/wiki/List_of_lighthouses_in_Maryland"
    },
    {
      "id": "upper-cedar-point-light",
      "name": "Upper Cedar Point Light",
      "state": "MD",
      "latitude": 38.4027,
      "longitude": -77.0826,
      "year_built": 1867,
      "status": "inactive",
      "type": "screw-pile",
      "wikipedia_url": null,
      "source_list_url": "https://en.wikipedia.org/wiki/List_of_lighthouses_in_Maryland"
    },
    {
      "id": "baker-shoal-range-front-light",
      "name": "Baker Shoal Range Front Light",
      "state": "DE",
      "latitude": 39.5409,
      "longitude": -75.5666,
      "year_built": 1902,
      "status": "destroyed",
      "type": "range",
      "wikipedia_url": null,
      "source_list_url": "https://en.wikipedia.org/wiki/List_of_lighthouses_in_Delaware"
    },
    {
      "id": "baker-shoal-range-rear-light",
      "name": "Baker Shoal Range Rear Light",
      "state": "DE",
      "latitude": 39.512,
      "longitude": -75.5699,
      "year_built": 1904,
      "status": "active",
      "type": "range",
      "wikipedia_url": null,
      "source_list_url": "https://en.wikipedia.org/wiki/List_of_lighthouses_in_Delaware"
    },
    {
      "id": "cape-henlopen-beacon",
      "name": "Cape Henlopen Beacon",
      "state": "DE",
      "latitude": 38.7903,
      "longitude": -75.0806,
      "year_built": 1825,
      "status": "destroyed",
      "type": "tower",
      "wikipedia_url": null,
      "source_list_url": "https://en.wikipedia.org/wiki/List_of_lighthouses_in_Delaware"
    },
    {
      "id": "cape-henlopen-light",
      "name": "Cape Henlopen Light",
      "state": "DE",
      "latitude": 38.778,
      "longitude": -75.084,
      "year_built": 1769,
      "status": "destroyed",
      "type": "unknown",
      "wikipedia_url": null,
      "source_list_url": "https://en.wikipedia.org/wiki/List_of_lighthouses_in_Delaware"
    },
    {
      "id": "cherry-island-range-rear-light",
      "name": "Cherry Island Range Rear Light",
      "state": "DE",
      "latitude": 39.762,
      "longitude": -75.49,
      "year_built": 1880,
      "status": "destroyed",
      "type": "range",
      "wikipedia_url": null,
      "source_list_url": "https://en.wikipedia.org/wiki/List_of_lighthouses_in_Delaware"
    },
    {
      "id": "delaware-breakwater-east-end-light",
      "name": "Delaware Breakwater East End Light",
      "state": "DE",
      "latitude": 38.7972,
      "longitude": -75.1003,
      "year_built": 1885,
      "status": "inactive",
      "type": "unknown",
      "wikipedia_url": null,
      "source_list_url": "https://en.wikipedia.org/wiki/List_of_lighthouses_in_Delaware"
    },
    {
      "id": "delaware-breakwater-range-front-light",
      "name": "Delaware Breakwater Range Front Light",
      "state": "DE",
      "latitude": 38.7992,
      "longitude": -75.1081,
      "year_built": 1838,
      "status": "destroyed",
      "type": "range",
      "wikipedia_url": null,
      "source_list_url": "https://en.wikipedia.org/wiki/List_of_lighthouses_in_Delaware"
    },
    {
      "id": "delaware-breakwater-range-rear-light",
      "name": "Delaware Breakwater Range Rear Light",
      "state": "DE",
      "latitude": 38.7897,
      "longitude": -75.1694,
      "year_built": 1881,
      "status": "inactive",
      "type": "range",
      "wikipedia_url": null,
      "source_list_url": "https://en.wikipedia.org/wiki/List_of_lighthouses_in_Delaware"
    },
    {
      "id": "fenwick-island-light",
      "name": "Fenwick Island Light",
      "state": "DE",
      "latitude": 38.4514,
      "longitude": -75.055,
      "year_built": 1859,
      "status": "active",
      "type": "unknown",
      "wikipedia_url": null,
      "source_list_url": "https://en.wikipedia.org/wiki/List_of_lighthouses_in_Delaware"
    },
    {
      "id": "fourteen-foot-bank-light",
      "name": "Fourteen Foot Bank Light",
      "state": "DE",
      "latitude": 39.0482,
      "longitude": -75.1822,
      "year_built": 1887,
      "status": "active",
      "type": "unknown",
      "wikipedia_url": null,
      "source_list_url": "https://en.wikipedia.org/wiki/List_of_lighthouses_in_Delaware"
    },
    {
      "id": "harbor-of-refuge-light",
      "name": "Harbor of Refuge Light",
      "state": "DE",
      "latitude": 38.8145,
      "longitude": -75.0924,
      "year_built": 1908,
      "status": "active",
      "type": "unknown",
      "wikipedia_url": null,
      "source_list_url": "https://en.wikipedia.org/wiki/List_of_lighthouses_in_Delaware"
    },
    {
      "id": "liston-range-front-light",
      "name": "Liston Range Front Light",
      "state": "DE",
      "latitude": 39.4825,
      "longitude": -75.5917,
      "year_built": 1906,
      "status": "inactive",
      "type": "range",
      "wikipedia_url": null,
      "source_list_url": "https://en.wikipedia.org/wiki/List_of_lighthouses_in_Delaware"
    },
    {
      "id": "liston-range-rear-light",
      "name": "Liston Range Rear Light",
      "state": "DE",
      "latitude": 39.5238,
      "longitude": -75.6397,
      "year_built": 1906,
      "status": "active",
      "type": "range",
      "wikipedia_url": null,
      "source_list_url": "https://en.wikipedia.org/wiki/List_of_lighthouses_in_Delaware"
    },
    {
      "id": "mahon-river-light",
      "name": "Mahon River Light",
      "state": "DE",
      "latitude": 39.185,
      "longitude": -75.4008,
      "year_built": 1831,
      "status": "destroyed",
      "type": "unknown",
      "wikipedia_url": null,
      "source_list_url": "https://en.wikipedia.org/wiki/List_of_lighthouses_in_Delaware"
    },
    {
      "id": "mispillion-light",
      "name": "Mispillion Light",
      "state": "DE",
      "latitude": 38.9475,
      "longitude": -75.3156,
      "year_built": 1831,
      "status": "destroyed",
      "type": "unknown",
      "wikipedia_url": null,
      "source_list_url": "https://en.wikipedia.org/wiki/List_of_lighthouses_in_Delaware"
    },
    {
      "id": "new-castle-range-front-light",
      "name": "New Castle Range Front Light",
      "state": "DE",
      "latitude": 39.6424,
      "longitude": -75.5954,
      "year_built": 1876,
      "status": "active",
      "type": "range",
      "wikipedia_url": null,
      "source_list_url": "https://en.wikipedia.org/wiki/List_of_lighthouses_in_Delaware"
    },
    {
      "id": "new-castle-range-rear-light",
      "name": "New Castle Range Rear Light",
      "state": "DE",
      "latitude": 39.6482,
      "longitude": -75.599,
      "year_built": 1876,
      "status": "active",
      "type": "range",
      "wikipedia_url": null,
      "source_list_url": "https://en.wikipedia.org/wiki/List_of_lighthouses_in_Delaware"
    },
    {
      "id": "reedy-island-range-rear-light",
      "name": "Reedy Island Range Rear Light",
      "state": "DE",
      "latitude": 39.4065,
      "longitude": -75.5902,
      "year_built": 1910,
      "status": "active",
      "type": "range",
      "wikipedia_url": null,
      "source_list_url": "https://en.wikipedia.org/wiki/List_of_lighthouses_in_Delaware"
    },
    {
      "id": "bellevue-range-rear-light",
      "name": "Bellevue Range Rear Light",
      "state": "DE",
      "latitude": 39.7203,
      "longitude": -75.5179,
      "year_built": 1909,
      "status": "active",
      "type": "range",
      "wikipedia_url": null,
      "source_list_url": "https://en.wikipedia.org/wiki/List_of_lighthouses_in_Delaware"
    },
    {
      "id": "christiana-light",
      "name": "Christiana Light",
      "state": "DE",
      "latitude": 39.722,
      "longitude": -75.52,
      "year_built": 1835,
      "status": "destroyed",
      "type": "unknown",
      "wikipedia_url": null,
      "source_list_url": "https://en.wikipedia.org/wiki/List_of_lighthouses_in_Delaware"
    },
    {
      "id": "christiana-north-jetty-light",
      "name": "Christiana North Jetty Light",
      "state": "DE",
      "latitude": 39.718,
      "longitude": -75.516,
      "year_built": 1884,
      "status": "destroyed",
      "type": "tower",
      "wikipedia_url": null,
      "source_list_url": "https://en.wikipedia.org/wiki/List_of_lighthouses_in_Delaware"
    },
    {
      "id": "marcus-hook-range-front-light",
      "name": "Marcus Hook Range Front Light",
      "state": "DE",
      "latitude": 39.776,
      "longitude": -75.4754,
      "year_built": 1915,
      "status": "active",
      "type": "range",
      "wikipedia_url": null,
      "source_list_url": "https://en.wikipedia.org/wiki/List_of_lighthouses_in_Delaware"
    },
    {
      "id": "marcus-hook-range-rear-light",
      "name": "Marcus Hook Range Rear Light",
      "state": "DE",
      "latitude": 39.7622,
      "longitude": -75.5032,
      "year_built": 1919,
      "status": "active",
      "type": "range",
      "wikipedia_url": null,
      "source_list_url": "https://en.wikipedia.org/wiki/List_of_lighthouses_in_Delaware"
    },
    {
      "id": "assateague-light",
      "name": "Assateague Light",
      "state": "VA",
      "latitude": 37.9111,
      "longitude": -75.3558,
      "year_built": 1833,
      "status": "active",
      "type": "unknown",
      "wikipedia_url": null,
      "source_list_url": "https://en.wikipedia.org/wiki/List_of_lighthouses_in_Virginia"
    },
    {
      "id": "back-river-light",
      "name": "Back River Light",
      "state": "VA",
      "latitude": 37.0872,
      "longitude": -76.2698,
      "year_built": 1829,
      "status": "destroyed",
      "type": "unknown",
      "wikipedia_url": null,
      "source_list_url": "https://en.wikipedia.org/wiki/List_of_lighthouses_in_Virginia"
    },
    {
      "id": "bells-rock-light",
      "name": "Bells Rock Light",
      "state": "VA",
      "latitude": 37.4839,
      "longitude": -76.7498,
      "year_built": 1881,
      "status": "inactive",
      "type": "unknown",
      "wikipedia_url": null,
      "source_list_url": "https://en.wikipedia.org/wiki/List_of_lighthouses_in_Virginia"
    },
    {
      "id": "bowlers-rock-light",
      "name": "Bowlers Rock Light",
      "state": "VA",
      "latitude": 37.8245,
      "longitude": -76.7327,
      "year_built": 1868,
      "status": "inactive",
      "type": "unknown",
      "wikipedia_url": null,
      "source_list_url": "https://en.wikipedia.org/wiki/List_of_lighthouses_in_Virginia"
    },
    {
      "id": "cape-charles-light",
      "name": "Cape Charles Light",
      "state": "VA",
      "latitude": 37.1229,
      "longitude": -75.9063,
      "year_built": 1828,
      "status": "active",
      "type": "unknown",
      "wikipedia_url": null,
      "source_list_url": "https://en.wikipedia.org/wiki/List_of_lighthouses_in_Virginia"
    },
    {
      "id": "cape-henry-light",
      "name": "Cape Henry Light",
      "state": "VA",
      "latitude": 36.9264,
      "longitude": -76.0072,
      "year_built": 1881,
      "status": "active",
      "type": "unknown",
      "wikipedia_url": null,
      "source_list_url": "https://en.wikipedia.org/wiki/List_of_lighthouses_in_Virginia"
    },
    {
      "id": "cherrystone-bar-light",
      "name": "Cherrystone Bar Light",
      "state": "VA",
      "latitude": 37.2564,
      "longitude": -76.0324,
      "year_built": 1858,
      "status": "inactive",
      "type": "unknown",
      "wikipedia_url": null,
      "source_list_url": "https://en.wikipedia.org/wiki/List_of_lighthouses_in_Virginia"
    },
    {
      "id": "chesapeake-light",
      "name": "Chesapeake Light",
      "state": "VA",
      "latitude": 36.90472,
      "longitude": -75.71278,
      "year_built": 1965,
      "status": "inactive",
      "type": "unknown",
      "wikipedia_url": null,
      "source_list_url": "https://en.wikipedia.org/wiki/List_of_lighthouses_in_Virginia"
    },
    {
      "id": "craney-island-light",
      "name": "Craney Island Light",
      "state": "VA",
      "latitude": 36.892,
      "longitude": -76.337,
      "year_built": 1859,
      "status": "inactive",
      "type": "unknown",
      "wikipedia_url": null,
      "source_list_url": "https://en.wikipedia.org/wiki/List_of_lighthouses_in_Virginia"
    },
    {
      "id": "deepwater-shoals-light",
      "name": "Deepwater Shoals Light",
      "state": "VA",
      "latitude": 37.1365167,
      "longitude": -76.6368,
      "year_built": 1855,
      "status": "destroyed",
      "type": "unknown",
      "wikipedia_url": null,
      "source_list_url": "https://en.wikipedia.org/wiki/List_of_lighthouses_in_Virginia"
    },
    {
      "id": "dutch-gap-canal-lights",
      "name": "Dutch Gap Canal Lights",
      "state": "VA",
      "latitude": 37.37639,
      "longitude": -77.35944,
      "year_built": 1875,
      "status": "inactive",
      "type": "unknown",
      "wikipedia_url": null,
      "source_list_url": "https://en.wikipedia.org/wiki/List_of_lighthouses_in_Virginia"
    },
    {
      "id": "great-wicomico-river-light",
      "name": "Great Wicomico River Light",
      "state": "VA",
      "latitude": 37.8042,
      "longitude": -76.2675,
      "year_built": 1889,
      "status": "inactive",
      "type": "unknown",
      "wikipedia_url": null,
      "source_list_url": "https://en.wikipedia.org/wiki/List_of_lighthouses_in_Virginia"
    },
    {
      "id": "hog-island-light",
      "name": "Hog Island Light",
      "state": "VA",
      "latitude": 37.394,
      "longitude": -75.701,
      "year_built": 1896,
      "status": "destroyed",
      "type": "unknown",
      "wikipedia_url": null,
      "source_list_url": "https://en.wikipedia.org/wiki/List_of_lighthouses_in_Virginia"
    },
    {
      "id": "jones-point-light",
      "name": "Jones Point Light",
      "state": "VA",
      "latitude": 38.790389,
      "longitude": -77.040639,
      "year_built": 1856,
      "status": "active",
      "type": "unknown",
      "wikipedia_url": null,
      "source_list_url": "https://en.wikipedia.org/wiki/List_of_lighthouses_in_Virginia"
    },
    {
      "id": "jordan-point-front-range-light",
      "name": "Jordan Point Front Range Light",
      "state": "VA",
      "latitude": null,
      "longitude": null,
      "year_built": null,
      "status": "unknown",
      "type": "range",
      "wikipedia_url": null,
      "source_list_url": "https://en.wikipedia.org/wiki/List_of_lighthouses_in_Virginia"
    },
    {
      "id": "jordan-point-range-rear-light",
      "name": "Jordan Point Range Rear Light",
      "state": "VA",
      "latitude": 37.313,
      "longitude": -77.223,
      "year_built": 1855,
      "status": "active",
      "type": "range",
      "wikipedia_url": null,
      "source_list_url": "https://en.wikipedia.org/wiki/List_of_lighthouses_in_Virginia"
    },
    {
      "id": "killock-shoal-light",
      "name": "Killock Shoal Light",
      "state": "VA",
      "latitude": 37.934,
      "longitude": -75.38,
      "year_built": 1886,
      "status": "inactive",
      "type": "unknown",
      "wikipedia_url": null,
      "source_list_url": "https://en.wikipedia.org/wiki/List_of_lighthouses_in_Virginia"
    },
    {
      "id": "lambert-point-light",
      "name": "Lambert Point Light",
      "state": "VA",
      "latitude": 36.875,
      "longitude": -76.331,
      "year_built": 1872,
      "status": "inactive",
      "type": "unknown",
      "wikipedia_url": null,
      "source_list_url": "https://en.wikipedia.org/wiki/List_of_lighthouses_in_Virginia"
    },
    {
      "id": "nansemond-river-light",
      "name": "Nansemond River Light",
      "state": "VA",
      "latitude": 36.912,
      "longitude": -76.445,
      "year_built": 1878,
      "status": "inactive",
      "type": "unknown",
      "wikipedia_url": null,
      "source_list_url": "https://en.wikipedia.org/wiki/List_of_lighthouses_in_Virginia"
    },
    {
      "id": "new-point-comfort-light",
      "name": "New Point Comfort Light",
      "state": "VA",
      "latitude": 36.912,
      "longitude": -76.445,
      "year_built": 1805,
      "status": "active",
      "type": "unknown",
      "wikipedia_url": null,
      "source_list_url": "https://en.wikipedia.org/wiki/List_of_lighthouses_in_Virginia"
    },
    {
      "id": "newport-news-middle-ground-light",
      "name": "Newport News Middle Ground Light",
      "state": "VA",
      "latitude": 36.9452,
      "longitude": -76.3915,
      "year_built": 1891,
      "status": "active",
      "type": "unknown",
      "wikipedia_url": null,
      "source_list_url": "https://en.wikipedia.org/wiki/List_of_lighthouses_in_Virginia"
    },
    {
      "id": "old-plantation-flats-light",
      "name": "Old Plantation Flats Light",
      "state": "VA",
      "latitude": 37.2288,
      "longitude": -76.0469,
      "year_built": 1886,
      "status": "destroyed",
      "type": "unknown",
      "wikipedia_url": null,
      "source_list_url": "https://en.wikipedia.org/wiki/List_of_lighthouses_in_Virginia"
    },
    {
      "id": "old-point-comfort-light",
      "name": "Old Point Comfort Light",
      "state": "VA",
      "latitude": 37.0018,
      "longitude": -76.3064,
      "year_built": 1804,
      "status": "active",
      "type": "unknown",
      "wikipedia_url": null,
      "source_list_url": "https://en.wikipedia.org/wiki/List_of_lighthouses_in_Virginia"
    },
    {
      "id": "pages-rock-light",
      "name": "Pages Rock Light",
      "state": "VA",
      "latitude": 37.3109,
      "longitude": -76.5866,
      "year_built": 1893,
      "status": "inactive",
      "type": "unknown",
      "wikipedia_url": null,
      "source_list_url": "https://en.wikipedia.org/wiki/List_of_lighthouses_in_Virginia"
    },
    {
      "id": "point-of-shoals-light",
      "name": "Point of Shoals Light",
      "state": "VA",
      "latitude": 37.0683,
      "longitude": -76.653,
      "year_built": 1855,
      "status": "destroyed",
      "type": "unknown",
      "wikipedia_url": null,
      "source_list_url": "https://en.wikipedia.org/wiki/List_of_lighthouses_in_Virginia"
    },
    {
      "id": "pungoteague-creek-light",
      "name": "Pungoteague Creek Light",
      "state": "VA",
      "latitude": 37.663,
      "longitude": -75.898,
      "year_built": 1854,
      "status": "destroyed",
      "type": "unknown",
      "wikipedia_url": null,
      "source_list_url": "https://en.wikipedia.org/wiki/List_of_lighthouses_in_Virginia"
    },
    {
      "id": "smith-point-light",
      "name": "Smith Point Light",
      "state": "VA",
      "latitude": 37.88,
      "longitude": -76.1839,
      "year_built": 1802,
      "status": "active",
      "type": "unknown",
      "wikipedia_url": null,
      "source_list_url": "https://en.wikipedia.org/wiki/List_of_lighthouses_in_Virginia"
    },
    {
      "id": "stingray-point-light",
      "name": "Stingray Point Light",
      "state": "VA",
      "latitude": 37.5613,
      "longitude": -76.27,
      "year_built": 1858,
      "status": "inactive",
      "type": "unknown",
      "wikipedia_url": null,
      "source_list_url": "https://en.wikipedia.org/wiki/List_of_lighthouses_in_Virginia"
    },
    {
      "id": "tangier-sound-light",
      "name": "Tangier Sound Light",
      "state": "VA",
      "latitude": 37.7878,
      "longitude": -75.974,
      "year_built": 1890,
      "status": "destroyed",
      "type": "unknown",
      "wikipedia_url": null,
      "source_list_url": "https://en.wikipedia.org/wiki/List_of_lighthouses_in_Virginia"
    },
    {
      "id": "thimble-shoal-light",
      "name": "Thimble Shoal Light",
      "state": "VA",
      "latitude": 37.0146,
      "longitude": -76.2399,
      "year_built": 1872,
      "status": "active",
      "type": "unknown",
      "wikipedia_url": null,
      "source_list_url": "https://en.wikipedia.org/wiki/List_of_lighthouses_in_Virginia"
    },
    {
      "id": "tue-marshes-light",
      "name": "Tue Marshes Light",
      "state": "VA",
      "latitude": 37.2356,
      "longitude": -76.3859,
      "year_built": 1875,
      "status": "inactive",
      "type": "unknown",
      "wikipedia_url": null,
      "source_list_url": "https://en.wikipedia.org/wiki/List_of_lighthouses_in_Virginia"
    },
    {
      "id": "watts-island-light",
      "name": "Watts Island Light",
      "state": "VA",
      "latitude": 37.782,
      "longitude": -75.894,
      "year_built": 1833,
      "status": "destroyed",
      "type": "unknown",
      "wikipedia_url": null,
      "source_list_url": "https://en.wikipedia.org/wiki/List_of_lighthouses_in_Virginia"
    },
    {
      "id": "white-shoal-light",
      "name": "White Shoal Light",
      "state": "VA",
      "latitude": 37.0218,
      "longitude": -76.5275,
      "year_built": 1855,
      "status": "destroyed",
      "type": "unknown",
      "wikipedia_url": null,
      "source_list_url": "https://en.wikipedia.org/wiki/List_of_lighthouses_in_Virginia"
    },
    {
      "id": "windmill-point-light",
      "name": "Windmill Point Light",
      "state": "VA",
      "latitude": 37.5968,
      "longitude": -76.2359,
      "year_built": 1869,
      "status": "inactive",
      "type": "unknown",
      "wikipedia_url": null,
      "source_list_url": "https://en.wikipedia.org/wiki/List_of_lighthouses_in_Virginia"
    },
    {
      "id": "wolf-trap-light",
      "name": "Wolf Trap Light",
      "state": "VA",
      "latitude": 37.5968,
      "longitude": -76.2359,
      "year_built": 1870,
      "status": "inactive",
      "type": "unknown",
      "wikipedia_url": null,
      "source_list_url": "https://en.wikipedia.org/wiki/List_of_lighthouses_in_Virginia"
    },
    {
      "id": "york-spit-light",
      "name": "York Spit Light",
      "state": "VA",
      "latitude": 37.2096,
      "longitude": -76.2542,
      "year_built": 1870,
      "status": "inactive",
      "type": "unknown",
      "wikipedia_url": null,
      "source_list_url": "https://en.wikipedia.org/wiki/List_of_lighthouses_in_Virginia"
    }
  ],
  "generatedAt": "2026-03-20T02:52:58.754Z"
}